{"name": "São José dos Campos", "lat": "-23.220218", "lon": "-45.897124", "desc": ""}
{"name": "Jacareí", "lat": "-23.304815", "lon": "-45.966175", "desc": ""}
{"name": "São Paulo", "lat": "-23.550520", "lon": "-46.633308", "desc": ""}
{"name": "Campinas", "lat": "-22.906847", "lon": "-47.060083", "desc": ""}
{"name": "Sorocaba", "lat": "-23.501772", "lon": "-47.458299", "desc": ""}
{"name": "Ribeirão Preto", "lat": "-21.177439", "lon": "-47.810327", "desc": ""}
{"name": "São Carlos", "lat": "-22.005555", "lon": "-47.897744", "desc": ""}
{"name": "Piracicaba", "lat": "-22.725000", "lon": "-47.650000", "desc": ""}
{"name": "Bauru", "lat": "-22.314900", "lon": "-49.059300", "desc": ""}
{"name": "São José do Rio Preto", "lat": "-20.819200", "lon": "-49.379400", "desc": ""}
{"name": "Franca", "lat": "-20.538000", "lon": "-47.403000", "desc": ""}
{"name": "Taubaté", "lat": "-23.024000", "lon": "-45.558000", "desc": ""}
{"name": "Mogi das Cruzes", "lat": "-23.520000", "lon": "-46.185000", "desc": ""}
